{"type":"FeatureCollection","features":[{"type":"Feature","properties":{"name":"HI TOP FEE #001"},"geometry":{"type":"Point","coordinates":[-103.198059,33.511372]}},{"type":"Feature","properties":{"name":"Devonian Christmas - plugged"},"geometry":{"type":"Point","coordinates":[-103.268084,32.382767]}},{"type":"Feature","properties":{"name":"Yates State #2 #002"},"geometry":{"type":"Point","coordinates":[-104.182098,32.490989]}},{"type":"Feature","properties":{"name":"State BV #1"},"geometry":{"type":"Point","coordinates":[-104.127934,32.804322]}},{"type":"Feature","properties":{"name":"Yates State #1"},"geometry":{"type":"Point","coordinates":[-104.179891,32.492712]}}]}